[
  {
    "name": "Baltusrol Golf Club",
    "city": "Springfield",
    "state": "NJ",
    "county": "Union",
    "zip_code": "07081",
    "phone": "(973) 376-1900",
    "website": "https://baltusrol.org",
    "latitude": 40.6897,
    "longitude": -74.3287,
    "course_architect": "A.W. Tillinghast",
    "tier": "Elite",
    "primary_focus": "Championship Golf",
    "atmosphere": "Traditional / Formal",
    "notes": "Two championship courses (Upper and Lower). 7 U.S. Opens hosted. Tillinghast design. One of the most prestigious clubs in America."
  },
  {
    "name": "Plainfield Country Club",
    "city": "Edison",
    "state": "NJ",
    "county": "Middlesex",
    "zip_code": "08820",
    "phone": "(732) 561-3700",
    "website": "https://plainfieldcc.com",
    "latitude": 40.5603,
    "longitude": -74.3789,
    "course_architect": "Donald Ross",
    "tier": "Elite",
    "primary_focus": "Championship Golf",
    "atmosphere": "Traditional / Formal",
    "notes": "Donald Ross masterpiece. Hosted 1978 U.S. Women's Open. Top 100 course. Walking only."
  },
  {
    "name": "Ridgewood Country Club",
    "city": "Paramus",
    "state": "NJ",
    "county": "Bergen",
    "zip_code": "07652",
    "phone": "(201) 444-6520",
    "website": "https://ridgewoodcc.org",
    "latitude": 40.9542,
    "longitude": -74.0676,
    "course_architect": "A.W. Tillinghast",
    "tier": "Elite",
    "primary_focus": "Championship Golf",
    "atmosphere": "Traditional / Formal",
    "notes": "27 holes (Center, East, West). Hosted 2014 PGA Championship. Elite Bergen County club."
  },
  {
    "name": "Pine Valley Golf Club",
    "city": "Clementon",
    "state": "NJ",
    "county": "Camden",
    "zip_code": "08021",
    "latitude": 39.7831,
    "longitude": -74.9876,
    "course_architect": "George Crump",
    "tier": "Elite",
    "primary_focus": "Championship Golf",
    "atmosphere": "Traditional / Formal",
    "notes": "Consistently ranked #1 course in the world. Ultra-exclusive. Men only. No women members."
  },
  {
    "name": "Somerset Hills Country Club",
    "city": "Bernardsville",
    "state": "NJ",
    "county": "Somerset",
    "zip_code": "07924",
    "phone": "(908) 766-0456",
    "latitude": 40.7131,
    "longitude": -74.5876,
    "course_architect": "A.W. Tillinghast",
    "tier": "Elite",
    "primary_focus": "Championship Golf",
    "atmosphere": "Traditional / Formal",
    "notes": "Tillinghast design. Top 100 course. 2005 U.S. Senior Open. Walking only."
  },
  {
    "name": "Alpine Country Club",
    "city": "Demarest",
    "state": "NJ",
    "county": "Bergen",
    "zip_code": "07627",
    "phone": "(201) 768-2121",
    "latitude": 40.9598,
    "longitude": -73.9543,
    "course_architect": "A.W. Tillinghast",
    "tier": "Elite",
    "primary_focus": "Championship Golf",
    "atmosphere": "Traditional / Formal",
    "notes": "Tillinghast design. Top Bergen County club. Hudson River views."
  },
  {
    "name": "Canoe Brook Country Club",
    "city": "Summit",
    "state": "NJ",
    "county": "Union",
    "zip_code": "07901",
    "phone": "(908) 277-0600",
    "latitude": 40.6987,
    "longitude": -74.3654,
    "course_architect": "A.W. Tillinghast",
    "tier": "Elite",
    "primary_focus": "Championship Golf",
    "atmosphere": "Traditional / Formal",
    "notes": "Two Tillinghast courses (North and South). Hosted Walker Cup. Premier Summit area club."
  },
  {
    "name": "Essex Fells Country Club",
    "city": "West Orange",
    "state": "NJ",
    "county": "Essex",
    "zip_code": "07052",
    "phone": "(973) 228-6300",
    "latitude": 40.8276,
    "longitude": -74.2687,
    "course_architect": "Tom Winton",
    "tier": "Premium",
    "primary_focus": "Championship Golf",
    "atmosphere": "Traditional / Formal",
    "notes": "Strong golf pedigree. Essex County location. Family-oriented."
  },
  {
    "name": "Montclair Golf Club",
    "city": "West Orange",
    "state": "NJ",
    "county": "Essex",
    "zip_code": "07052",
    "phone": "(973) 746-0034",
    "latitude": 40.7987,
    "longitude": -74.2543,
    "course_architect": "Donald Ross",
    "tier": "Premium",
    "primary_focus": "Championship Golf",
    "atmosphere": "Traditional / Formal",
    "notes": "Donald Ross design. 1994 U.S. Women's Amateur. Strong tournament history."
  },
  {
    "name": "Rumson Country Club",
    "city": "Rumson",
    "state": "NJ",
    "county": "Monmouth",
    "zip_code": "07760",
    "phone": "(732) 842-1748",
    "latitude": 40.3698,
    "longitude": -74.0087,
    "course_architect": "Devereux Emmet",
    "tier": "Premium",
    "primary_focus": "Championship Golf",
    "atmosphere": "Polished but relaxed",
    "notes": "Shore area club. Strong junior program. Family-friendly."
  },
  {
    "name": "Navesink Country Club",
    "city": "Middletown",
    "state": "NJ",
    "county": "Monmouth",
    "zip_code": "07748",
    "phone": "(732) 787-1414",
    "latitude": 40.3987,
    "longitude": -74.0876,
    "course_architect": "Donald Ross",
    "tier": "Premium",
    "primary_focus": "Championship Golf",
    "atmosphere": "Polished but relaxed",
    "notes": "Donald Ross design. Water views. Shore club with strong golf."
  },
  {
    "name": "Hollywood Golf Club",
    "city": "Deal",
    "state": "NJ",
    "county": "Monmouth",
    "zip_code": "07723",
    "phone": "(732) 531-2200",
    "latitude": 40.2543,
    "longitude": -74.0098,
    "course_architect": "Donald Ross",
    "tier": "Premium",
    "primary_focus": "Championship Golf",
    "atmosphere": "Polished but relaxed",
    "notes": "Shore course. Donald Ross design. Ocean breezes. Strong member play."
  },
  {
    "name": "Deal Golf & Country Club",
    "city": "Deal",
    "state": "NJ",
    "county": "Monmouth",
    "zip_code": "07723",
    "latitude": 40.2498,
    "longitude": -74.0012,
    "tier": "Premium",
    "primary_focus": "Family & Social",
    "atmosphere": "Casual / Come as you are",
    "notes": "Beach club with golf. Family-oriented. Summer season focus."
  },
  {
    "name": "Metedeconk National Golf Club",
    "city": "Jackson",
    "state": "NJ",
    "county": "Ocean",
    "zip_code": "08527",
    "phone": "(732) 833-8800",
    "latitude": 40.1087,
    "longitude": -74.3654,
    "course_architect": "Robert Trent Jones Jr.",
    "tier": "Premium",
    "primary_focus": "Championship Golf",
    "atmosphere": "Polished but relaxed",
    "notes": "RTJ Jr design. 2005 USGA Senior Amateur. Excellent conditions. Golf-focused."
  },
  {
    "name": "Hackensack Golf Club",
    "city": "Oradell",
    "state": "NJ",
    "county": "Bergen",
    "zip_code": "07649",
    "phone": "(201) 261-5130",
    "latitude": 40.9687,
    "longitude": -74.0198,
    "course_architect": "A.W. Tillinghast",
    "tier": "Premium",
    "primary_focus": "Championship Golf",
    "atmosphere": "Traditional / Formal",
    "notes": "Tillinghast design. Bergen County location. Strong membership."
  },
  {
    "name": "Arcola Country Club",
    "city": "Paramus",
    "state": "NJ",
    "county": "Bergen",
    "zip_code": "07652",
    "phone": "(201) 262-2700",
    "latitude": 40.9443,
    "longitude": -74.0654,
    "course_architect": "Orrin Smith",
    "tier": "Premium",
    "primary_focus": "Family & Social",
    "atmosphere": "Polished but relaxed",
    "notes": "Bergen County. Family-oriented. Strong pool and tennis."
  },
  {
    "name": "Upper Montclair Country Club",
    "city": "Clifton",
    "state": "NJ",
    "county": "Passaic",
    "zip_code": "07013",
    "phone": "(973) 746-5190",
    "latitude": 40.8598,
    "longitude": -74.1765,
    "course_architect": "Robert White",
    "tier": "Premium",
    "primary_focus": "Championship Golf",
    "atmosphere": "Traditional / Formal",
    "notes": "Classic parkland course. Strong tournament schedule. Active membership."
  },
  {
    "name": "Royce Brook Golf Club",
    "city": "Hillsborough",
    "state": "NJ",
    "county": "Somerset",
    "zip_code": "08844",
    "latitude": 40.5287,
    "longitude": -74.6343,
    "tier": "Mid-Tier",
    "primary_focus": "Championship Golf",
    "atmosphere": "Casual / Come as you are",
    "notes": "Two 18-hole courses. Modern amenities. Growing membership."
  },
  {
    "name": "Tavistock Country Club",
    "city": "Haddonfield",
    "state": "NJ",
    "county": "Camden",
    "zip_code": "08033",
    "phone": "(856) 428-3900",
    "latitude": 39.8887,
    "longitude": -75.0343,
    "course_architect": "William Flynn",
    "tier": "Premium",
    "primary_focus": "Championship Golf",
    "atmosphere": "Traditional / Formal",
    "notes": "William Flynn design. South Jersey premier club. Strong golf tradition."
  },
  {
    "name": "Merchantville Country Club",
    "city": "Cherry Hill",
    "state": "NJ",
    "county": "Camden",
    "zip_code": "08002",
    "phone": "(856) 665-4200",
    "latitude": 39.9187,
    "longitude": -75.0098,
    "tier": "Mid-Tier",
    "primary_focus": "Family & Social",
    "atmosphere": "Polished but relaxed",
    "notes": "Family club. Pool, tennis, dining. South Jersey location."
  },
  {
    "name": "Shackamaxon Country Club",
    "city": "Scotch Plains",
    "state": "NJ",
    "county": "Union",
    "zip_code": "07076",
    "phone": "(908) 233-1300",
    "latitude": 40.6387,
    "longitude": -74.3876,
    "course_architect": "A.W. Tillinghast",
    "tier": "Premium",
    "primary_focus": "Championship Golf",
    "atmosphere": "Traditional / Formal",
    "notes": "Tillinghast design. Hosted LPGA events. Strong women's golf program."
  },
  {
    "name": "Brooklake Country Club",
    "city": "Florham Park",
    "state": "NJ",
    "county": "Morris",
    "zip_code": "07932",
    "phone": "(973) 377-0000",
    "latitude": 40.7687,
    "longitude": -74.3987,
    "tier": "Premium",
    "primary_focus": "Family & Social",
    "atmosphere": "Polished but relaxed",
    "notes": "Morris County. Family amenities. Pool, tennis, golf."
  },
  {
    "name": "Morris County Golf Club",
    "city": "Convent Station",
    "state": "NJ",
    "county": "Morris",
    "zip_code": "07961",
    "phone": "(973) 455-9100",
    "latitude": 40.7798,
    "longitude": -74.4387,
    "course_architect": "Robert Trent Jones",
    "tier": "Premium",
    "primary_focus": "Championship Golf",
    "atmosphere": "Traditional / Formal",
    "notes": "Robert Trent Jones design. Strong tournament schedule."
  },
  {
    "name": "Roxiticus Golf Club",
    "city": "Mendham",
    "state": "NJ",
    "county": "Morris",
    "zip_code": "07945",
    "phone": "(973) 543-4200",
    "latitude": 40.7687,
    "longitude": -74.5987,
    "course_architect": "A.W. Tillinghast",
    "tier": "Premium",
    "primary_focus": "Championship Golf",
    "atmosphere": "Traditional / Formal",
    "notes": "Tillinghast design. Morris County location. Golf-focused."
  },
  {
    "name": "Fairmount Country Club",
    "city": "Chatham",
    "state": "NJ",
    "county": "Morris",
    "zip_code": "07928",
    "phone": "(973) 635-2434",
    "latitude": 40.7387,
    "longitude": -74.4198,
    "tier": "Premium",
    "primary_focus": "Family & Social",
    "atmosphere": "Polished but relaxed",
    "notes": "Morris County family club. Pool, tennis, golf."
  },
  {
    "name": "Mendham Golf & Tennis Club",
    "city": "Mendham",
    "state": "NJ",
    "county": "Morris",
    "zip_code": "07945",
    "phone": "(973) 543-9600",
    "latitude": 40.7787,
    "longitude": -74.6087,
    "tier": "Mid-Tier",
    "primary_focus": "Family & Social",
    "atmosphere": "Casual / Come as you are",
    "notes": "Golf and tennis focus. Family amenities. Relaxed vibe."
  },
  {
    "name": "Spring Brook Country Club",
    "city": "Morristown",
    "state": "NJ",
    "county": "Morris",
    "zip_code": "07960",
    "phone": "(973) 538-8844",
    "latitude": 40.7987,
    "longitude": -74.4876,
    "tier": "Mid-Tier",
    "primary_focus": "Family & Social",
    "atmosphere": "Polished but relaxed",
    "notes": "Morris County. Family club with pool and dining."
  },
  {
    "name": "Beacon Hill Club",
    "city": "Summit",
    "state": "NJ",
    "county": "Union",
    "zip_code": "07901",
    "phone": "(908) 277-5858",
    "latitude": 40.7087,
    "longitude": -74.3498,
    "tier": "Mid-Tier",
    "primary_focus": "Family & Social",
    "atmosphere": "Casual / Come as you are",
    "notes": "Summit location. Family-oriented. Pool and tennis."
  },
  {
    "name": "Crestmont Country Club",
    "city": "West Orange",
    "state": "NJ",
    "county": "Essex",
    "zip_code": "07052",
    "phone": "(973) 731-6540",
    "latitude": 40.7987,
    "longitude": -74.2876,
    "tier": "Mid-Tier",
    "primary_focus": "Family & Social",
    "atmosphere": "Polished but relaxed",
    "notes": "Essex County family club. Pool, tennis, dining."
  },
  {
    "name": "Rock Spring Club",
    "city": "West Orange",
    "state": "NJ",
    "county": "Essex",
    "zip_code": "07052",
    "phone": "(973) 736-2226",
    "latitude": 40.8187,
    "longitude": -74.2654,
    "tier": "Premium",
    "primary_focus": "Championship Golf",
    "atmosphere": "Traditional / Formal",
    "notes": "A.W. Tillinghast design. Essex County. Strong golf tradition."
  },
  {
    "name": "Essex County Country Club",
    "city": "West Orange",
    "state": "NJ",
    "county": "Essex",
    "zip_code": "07052",
    "phone": "(973) 731-4400",
    "latitude": 40.7887,
    "longitude": -74.2987,
    "tier": "Premium",
    "primary_focus": "Championship Golf",
    "atmosphere": "Traditional / Formal",
    "notes": "Donald Ross design. Historic Essex County club."
  },
  {
    "name": "Forsgate Country Club",
    "city": "Monroe Township",
    "state": "NJ",
    "county": "Middlesex",
    "zip_code": "08831",
    "phone": "(732) 656-4444",
    "latitude": 40.3187,
    "longitude": -74.4387,
    "tier": "Mid-Tier",
    "primary_focus": "Championship Golf",
    "atmosphere": "Polished but relaxed",
    "notes": "Multiple courses. Central Jersey. Active tournament schedule."
  },
  {
    "name": "Manasquan River Golf Club",
    "city": "Brielle",
    "state": "NJ",
    "county": "Monmouth",
    "zip_code": "08730",
    "phone": "(732) 223-7333",
    "latitude": 40.1087,
    "longitude": -74.0654,
    "tier": "Premium",
    "primary_focus": "Championship Golf",
    "atmosphere": "Polished but relaxed",
    "notes": "Shore location. Modern design. Strong conditioning."
  },
  {
    "name": "Colts Neck Golf Club",
    "city": "Colts Neck",
    "state": "NJ",
    "county": "Monmouth",
    "zip_code": "07722",
    "latitude": 40.2987,
    "longitude": -74.1787,
    "tier": "Mid-Tier",
    "primary_focus": "Championship Golf",
    "atmosphere": "Casual / Come as you are",
    "notes": "Monmouth County. Golf-focused. Modern amenities."
  },
  {
    "name": "Jumping Brook Country Club",
    "city": "Neptune",
    "state": "NJ",
    "county": "Monmouth",
    "zip_code": "07753",
    "phone": "(732) 922-6200",
    "latitude": 40.2187,
    "longitude": -74.0987,
    "tier": "Mid-Tier",
    "primary_focus": "Family & Social",
    "atmosphere": "Polished but relaxed",
    "notes": "Shore area. Family amenities. Pool and golf."
  },
  {
    "name": "Deal Golf & Country Club",
    "city": "Deal",
    "state": "NJ",
    "county": "Monmouth",
    "zip_code": "07723",
    "latitude": 40.2543,
    "longitude": -74.0054,
    "tier": "Premium",
    "primary_focus": "Family & Social",
    "atmosphere": "Casual / Come as you are",
    "notes": "Beach club. Family-oriented. Summer focus."
  },
  {
    "name": "Spring Lake Golf Club",
    "city": "Spring Lake",
    "state": "NJ",
    "county": "Monmouth",
    "zip_code": "07762",
    "phone": "(732) 449-6805",
    "latitude": 40.1487,
    "longitude": -74.0287,
    "tier": "Premium",
    "primary_focus": "Championship Golf",
    "atmosphere": "Traditional / Formal",
    "notes": "Shore location. Donald Ross design. Historic club."
  },
  {
    "name": "Twin Brooks Country Club",
    "city": "Watchung",
    "state": "NJ",
    "county": "Somerset",
    "zip_code": "07069",
    "phone": "(908) 561-4100",
    "latitude": 40.6487,
    "longitude": -74.4487,
    "tier": "Mid-Tier",
    "primary_focus": "Family & Social",
    "atmosphere": "Polished but relaxed",
    "notes": "Somerset County. Family club. Pool, tennis, golf."
  },
  {
    "name": "Copper Hill Country Club",
    "city": "Ringoes",
    "state": "NJ",
    "county": "Hunterdon",
    "zip_code": "08551",
    "phone": "(908) 788-6393",
    "latitude": 40.4687,
    "longitude": -74.8687,
    "tier": "Mid-Tier",
    "primary_focus": "Championship Golf",
    "atmosphere": "Casual / Come as you are",
    "notes": "Hunterdon County. Rolling terrain. Golf-focused."
  },
  {
    "name": "Raritan Valley Country Club",
    "city": "Bridgewater",
    "state": "NJ",
    "county": "Somerset",
    "zip_code": "08807",
    "phone": "(908) 725-3838",
    "latitude": 40.5987,
    "longitude": -74.6087,
    "tier": "Mid-Tier",
    "primary_focus": "Family & Social",
    "atmosphere": "Polished but relaxed",
    "notes": "Somerset County. Family amenities. Active social calendar."
  },
  {
    "name": "Somerville Country Club",
    "city": "Somerville",
    "state": "NJ",
    "county": "Somerset",
    "zip_code": "08876",
    "latitude": 40.5687,
    "longitude": -74.6287,
    "tier": "Accessible",
    "primary_focus": "Family & Social",
    "atmosphere": "Casual / Come as you are",
    "notes": "Small club. Family-oriented. Relaxed atmosphere."
  },
  {
    "name": "Mountain Ridge Country Club",
    "city": "West Caldwell",
    "state": "NJ",
    "county": "Essex",
    "zip_code": "07006",
    "phone": "(973) 228-3003",
    "latitude": 40.8487,
    "longitude": -74.2987,
    "tier": "Mid-Tier",
    "primary_focus": "Championship Golf",
    "atmosphere": "Polished but relaxed",
    "notes": "Essex County. Hilly terrain. Strong golf."
  },
  {
    "name": "Montammy Golf Club",
    "city": "Alpine",
    "state": "NJ",
    "county": "Bergen",
    "zip_code": "07620",
    "phone": "(201) 768-9100",
    "latitude": 40.9587,
    "longitude": -73.9287,
    "tier": "Premium",
    "primary_focus": "Championship Golf",
    "atmosphere": "Polished but relaxed",
    "notes": "Bergen County. Palisades location. Hudson views."
  },
  {
    "name": "Old Tappan Golf Club",
    "city": "Old Tappan",
    "state": "NJ",
    "county": "Bergen",
    "zip_code": "07675",
    "phone": "(201) 767-6202",
    "latitude": 41.0087,
    "longitude": -73.9898,
    "tier": "Mid-Tier",
    "primary_focus": "Championship Golf",
    "atmosphere": "Casual / Come as you are",
    "notes": "Bergen County. Modern club. Growing membership."
  },
  {
    "name": "Edgewood Country Club",
    "city": "River Vale",
    "state": "NJ",
    "county": "Bergen",
    "zip_code": "07675",
    "phone": "(201) 664-4111",
    "latitude": 41.0187,
    "longitude": -74.0098,
    "tier": "Mid-Tier",
    "primary_focus": "Family & Social",
    "atmosphere": "Polished but relaxed",
    "notes": "Bergen County. Family club. Pool and tennis."
  },
  {
    "name": "White Beeches Golf & Country Club",
    "city": "Haworth",
    "state": "NJ",
    "county": "Bergen",
    "zip_code": "07641",
    "phone": "(201) 384-1388",
    "latitude": 40.9687,
    "longitude": -73.9887,
    "tier": "Mid-Tier",
    "primary_focus": "Family & Social",
    "atmosphere": "Polished but relaxed",
    "notes": "Bergen County. Family amenities. Pool, tennis, dining."
  },
  {
    "name": "North Jersey Country Club",
    "city": "Wayne",
    "state": "NJ",
    "county": "Passaic",
    "zip_code": "07470",
    "phone": "(973) 694-1025",
    "latitude": 40.9287,
    "longitude": -74.2387,
    "tier": "Mid-Tier",
    "primary_focus": "Championship Golf",
    "atmosphere": "Polished but relaxed",
    "notes": "Passaic County. Robert Trent Jones design."
  },
  {
    "name": "Preakness Hills Country Club",
    "city": "Wayne",
    "state": "NJ",
    "county": "Passaic",
    "zip_code": "07470",
    "phone": "(973) 696-4500",
    "latitude": 40.9487,
    "longitude": -74.2587,
    "tier": "Mid-Tier",
    "primary_focus": "Family & Social",
    "atmosphere": "Polished but relaxed",
    "notes": "Passaic County. Family club. Pool and dining."
  },
  {
    "name": "Ramapo Ridge Country Club",
    "city": "Mahwah",
    "state": "NJ",
    "county": "Bergen",
    "zip_code": "07430",
    "latitude": 41.0687,
    "longitude": -74.1487,
    "tier": "Accessible",
    "primary_focus": "Family & Social",
    "atmosphere": "Casual / Come as you are",
    "notes": "Bergen County. Small club. Family-oriented."
  },
  {
    "name": "Greenacres Country Club",
    "city": "Lawrenceville",
    "state": "NJ",
    "county": "Mercer",
    "zip_code": "08648",
    "phone": "(609) 896-0990",
    "latitude": 40.2987,
    "longitude": -74.7287,
    "tier": "Mid-Tier",
    "primary_focus": "Championship Golf",
    "atmosphere": "Polished but relaxed",
    "notes": "Mercer County. Central Jersey. Active golf program."
  },
  {
    "name": "Trenton Country Club",
    "city": "West Trenton",
    "state": "NJ",
    "county": "Mercer",
    "zip_code": "08628",
    "phone": "(609) 771-9200",
    "latitude": 40.2787,
    "longitude": -74.8087,
    "tier": "Premium",
    "primary_focus": "Championship Golf",
    "atmosphere": "Traditional / Formal",
    "notes": "Historic Mercer County club. Donald Ross design."
  },
  {
    "name": "Bedens Brook Club",
    "city": "Skillman",
    "state": "NJ",
    "county": "Somerset",
    "zip_code": "08558",
    "phone": "(609) 921-3623",
    "latitude": 40.4187,
    "longitude": -74.6987,
    "tier": "Premium",
    "primary_focus": "Championship Golf",
    "atmosphere": "Polished but relaxed",
    "notes": "Somerset County. Modern design. Golf-focused."
  },
  {
    "name": "Fiddler's Elbow Country Club",
    "city": "Bedminster",
    "state": "NJ",
    "county": "Somerset",
    "zip_code": "07921",
    "phone": "(908) 781-7070",
    "latitude": 40.6687,
    "longitude": -74.6687,
    "tier": "Mid-Tier",
    "primary_focus": "Championship Golf",
    "atmosphere": "Casual / Come as you are",
    "notes": "Somerset County. Rolling hills. Golf-focused."
  },
  {
    "name": "Neshanic Valley Golf Course",
    "city": "Neshanic Station",
    "state": "NJ",
    "county": "Somerset",
    "zip_code": "08853",
    "latitude": 40.5287,
    "longitude": -74.7487,
    "tier": "Accessible",
    "primary_focus": "Championship Golf",
    "atmosphere": "Casual / Come as you are",
    "notes": "Somerset County. Public-private hybrid. Golf focus."
  },
  {
    "name": "Baltusrol Golf Club",
    "city": "Springfield",
    "state": "NJ",
    "county": "Union",
    "tier": "Elite",
    "notes": "Duplicate - already listed above"
  },
  {
    "name": "Echo Lake Country Club",
    "city": "Westfield",
    "state": "NJ",
    "county": "Union",
    "zip_code": "07090",
    "phone": "(908) 232-4141",
    "latitude": 40.6587,
    "longitude": -74.3387,
    "tier": "Premium",
    "primary_focus": "Family & Social",
    "atmosphere": "Polished but relaxed",
    "notes": "Union County. Family club. Pool, tennis, dining."
  },
  {
    "name": "Suburban Golf Club",
    "city": "Union",
    "state": "NJ",
    "county": "Union",
    "zip_code": "07083",
    "phone": "(908) 686-0653",
    "latitude": 40.6987,
    "longitude": -74.2687,
    "tier": "Mid-Tier",
    "primary_focus": "Championship Golf",
    "atmosphere": "Polished but relaxed",
    "notes": "Union County. Classic parkland. Active membership."
  },
  {
    "name": "Galloping Hill Golf Course",
    "city": "Kenilworth",
    "state": "NJ",
    "county": "Union",
    "zip_code": "07033",
    "latitude": 40.6787,
    "longitude": -74.2987,
    "tier": "Accessible",
    "primary_focus": "Championship Golf",
    "atmosphere": "Casual / Come as you are",
    "notes": "Union County. Public course. Golf-focused."
  },
  {
    "name": "Plainfield West Nine Country Club",
    "city": "Scotch Plains",
    "state": "NJ",
    "county": "Union",
    "zip_code": "07076",
    "latitude": 40.6287,
    "longitude": -74.3987,
    "tier": "Accessible",
    "primary_focus": "Championship Golf",
    "atmosphere": "Casual / Come as you are",
    "notes": "Union County. Nine-hole course. Intimate club."
  },
  {
    "name": "Ashbrook Golf Club",
    "city": "Scotch Plains",
    "state": "NJ",
    "county": "Union",
    "zip_code": "07076",
    "latitude": 40.6187,
    "longitude": -74.4187,
    "tier": "Accessible",
    "primary_focus": "Championship Golf",
    "atmosphere": "Casual / Come as you are",
    "notes": "Union County. Public course. Active play."
  },
  {
    "name": "Cranford Golf Club",
    "city": "Cranford",
    "state": "NJ",
    "county": "Union",
    "zip_code": "07016",
    "phone": "(908) 276-1617",
    "latitude": 40.6487,
    "longitude": -74.2987,
    "tier": "Mid-Tier",
    "primary_focus": "Championship Golf",
    "atmosphere": "Casual / Come as you are",
    "notes": "Union County. Robert Trent Jones design. Active golf."
  },
  {
    "name": "Raritan Bay Club",
    "city": "Perth Amboy",
    "state": "NJ",
    "county": "Middlesex",
    "latitude": 40.5187,
    "longitude": -74.2687,
    "tier": "Accessible",
    "primary_focus": "Family & Social",
    "atmosphere": "Casual / Come as you are",
    "notes": "Middlesex County. Small club. Water views."
  },
  {
    "name": "Woodbridge Country Club",
    "city": "Woodbridge",
    "state": "NJ",
    "county": "Middlesex",
    "latitude": 40.5587,
    "longitude": -74.2887,
    "tier": "Accessible",
    "primary_focus": "Family & Social",
    "atmosphere": "Casual / Come as you are",
    "notes": "Middlesex County. Family club. Pool and golf."
  },
  {
    "name": "Metuchen Golf & Country Club",
    "city": "Edison",
    "state": "NJ",
    "county": "Middlesex",
    "phone": "(732) 548-3636",
    "latitude": 40.5487,
    "longitude": -74.3587,
    "tier": "Mid-Tier",
    "primary_focus": "Family & Social",
    "atmosphere": "Polished but relaxed",
    "notes": "Middlesex County. Family amenities. Pool, tennis."
  },
  {
    "name": "Raritan Landing Golf Club",
    "city": "Piscataway",
    "state": "NJ",
    "county": "Middlesex",
    "latitude": 40.5287,
    "longitude": -74.4687,
    "tier": "Accessible",
    "primary_focus": "Championship Golf",
    "atmosphere": "Casual / Come as you are",
    "notes": "Middlesex County. Public course. Golf-focused."
  },
  {
    "name": "Old Bridge Golf Club",
    "city": "Old Bridge",
    "state": "NJ",
    "county": "Middlesex",
    "latitude": 40.4187,
    "longitude": -74.3087,
    "tier": "Accessible",
    "primary_focus": "Championship Golf",
    "atmosphere": "Casual / Come as you are",
    "notes": "Middlesex County. Public course. Active play."
  },
  {
    "name": "East Brunswick Golf Club",
    "city": "East Brunswick",
    "state": "NJ",
    "county": "Middlesex",
    "latitude": 40.4287,
    "longitude": -74.3987,
    "tier": "Accessible",
    "primary_focus": "Championship Golf",
    "atmosphere": "Casual / Come as you are",
    "notes": "Middlesex County. Public course. Golf-focused."
  },
  {
    "name": "Trump National Golf Club",
    "city": "Bedminster",
    "state": "NJ",
    "county": "Somerset",
    "zip_code": "07921",
    "phone": "(908) 470-4400",
    "website": "https://www.trumpgolf.com/bedminster",
    "latitude": 40.6887,
    "longitude": -74.6487,
    "tier": "Elite",
    "primary_focus": "Championship Golf",
    "atmosphere": "Traditional / Formal",
    "notes": "Championship course. Hosted 2017 U.S. Women's Open. Premium facilities."
  },
  {
    "name": "Baltusrol Golf Club - Lower Course",
    "city": "Springfield",
    "state": "NJ",
    "county": "Union",
    "tier": "Elite",
    "notes": "Lower course at Baltusrol"
  },
  {
    "name": "Pine Barrens Golf Club",
    "city": "Jackson",
    "state": "NJ",
    "county": "Ocean",
    "latitude": 40.0987,
    "longitude": -74.4187,
    "tier": "Mid-Tier",
    "primary_focus": "Championship Golf",
    "atmosphere": "Casual / Come as you are",
    "notes": "Ocean County. Pine Barrens setting. Golf-focused."
  },
  {
    "name": "Lakewood Country Club",
    "city": "Lakewood",
    "state": "NJ",
    "county": "Ocean",
    "phone": "(732) 363-4200",
    "latitude": 40.0787,
    "longitude": -74.2187,
    "tier": "Premium",
    "primary_focus": "Championship Golf",
    "atmosphere": "Traditional / Formal",
    "notes": "Historic Ocean County club. Donald Ross design."
  },
  {
    "name": "Ocean Acres Country Club",
    "city": "Manahawkin",
    "state": "NJ",
    "county": "Ocean",
    "latitude": 39.6987,
    "longitude": -74.2587,
    "tier": "Accessible",
    "primary_focus": "Family & Social",
    "atmosphere": "Casual / Come as you are",
    "notes": "Ocean County. Adult community club."
  },
  {
    "name": "Seaview Golf Club",
    "city": "Galloway",
    "state": "NJ",
    "county": "Atlantic",
    "phone": "(609) 652-1800",
    "latitude": 39.4787,
    "longitude": -74.5087,
    "tier": "Premium",
    "primary_focus": "Championship Golf",
    "atmosphere": "Polished but relaxed",
    "notes": "Two courses (Bay and Pines). Hosted ShopRite LPGA Classic."
  },
  {
    "name": "Marriott's Seaview Resort",
    "city": "Galloway",
    "state": "NJ",
    "county": "Atlantic",
    "tier": "Mid-Tier",
    "notes": "Resort with golf. Semi-private."
  },
  {
    "name": "Ballamor Golf Club",
    "city": "Egg Harbor Township",
    "state": "NJ",
    "county": "Atlantic",
    "latitude": 39.3987,
    "longitude": -74.6287,
    "tier": "Mid-Tier",
    "primary_focus": "Championship Golf",
    "atmosphere": "Casual / Come as you are",
    "notes": "Atlantic County. Modern design. Golf-focused."
  },
  {
    "name": "McCullough's Emerald Golf Links",
    "city": "Egg Harbor Township",
    "state": "NJ",
    "county": "Atlantic",
    "latitude": 39.3787,
    "longitude": -74.6187,
    "tier": "Accessible",
    "primary_focus": "Championship Golf",
    "atmosphere": "Casual / Come as you are",
    "notes": "Atlantic County. Links-style. Public."
  },
  {
    "name": "Harbor Pines Golf Club",
    "city": "Egg Harbor Township",
    "state": "NJ",
    "county": "Atlantic",
    "latitude": 39.3687,
    "longitude": -74.5987,
    "tier": "Premium",
    "primary_focus": "Championship Golf",
    "atmosphere": "Polished but relaxed",
    "notes": "Arnold Palmer design. Atlantic County."
  },
  {
    "name": "Sand Barrens Golf Club",
    "city": "Swainton",
    "state": "NJ",
    "county": "Cape May",
    "latitude": 39.0587,
    "longitude": -74.8087,
    "tier": "Mid-Tier",
    "primary_focus": "Championship Golf",
    "atmosphere": "Casual / Come as you are",
    "notes": "Cape May County. Links-style. Golf-focused."
  },
  {
    "name": "Cape May National Golf Club",
    "city": "Cape May",
    "state": "NJ",
    "county": "Cape May",
    "phone": "(609) 884-1563",
    "latitude": 38.9687,
    "longitude": -74.9287,
    "tier": "Premium",
    "primary_focus": "Championship Golf",
    "atmosphere": "Polished but relaxed",
    "notes": "Bayberry and Magnolia nines. Shore views."
  },
  {
    "name": "Stone Harbor Golf Club",
    "city": "Cape May Court House",
    "state": "NJ",
    "county": "Cape May",
    "phone": "(609) 465-9270",
    "latitude": 39.0987,
    "longitude": -74.8287,
    "tier": "Premium",
    "primary_focus": "Championship Golf",
    "atmosphere": "Polished but relaxed",
    "notes": "Shore location. Modern design. Golf-focused."
  },
  {
    "name": "Avalon Golf Club",
    "city": "Cape May Court House",
    "state": "NJ",
    "county": "Cape May",
    "phone": "(609) 465-4653",
    "latitude": 39.1087,
    "longitude": -74.8187,
    "tier": "Premium",
    "primary_focus": "Championship Golf",
    "atmosphere": "Polished but relaxed",
    "notes": "Brian Ault design. Cape May County."
  },
  {
    "name": "Sea Oaks Golf Club",
    "city": "Little Egg Harbor",
    "state": "NJ",
    "county": "Ocean",
    "latitude": 39.6087,
    "longitude": -74.3187,
    "tier": "Accessible",
    "primary_focus": "Championship Golf",
    "atmosphere": "Casual / Come as you are",
    "notes": "Ocean County. Semi-private."
  },
  {
    "name": "Twisted Dune Golf Club",
    "city": "Egg Harbor Township",
    "state": "NJ",
    "county": "Atlantic",
    "phone": "(609) 653-8019",
    "latitude": 39.3887,
    "longitude": -74.5887,
    "tier": "Premium",
    "primary_focus": "Championship Golf",
    "atmosphere": "Casual / Come as you are",
    "notes": "Links-style. Dramatic terrain. Golf-focused."
  },
  {
    "name": "Blue Heron Pines Golf Club",
    "city": "Cologne",
    "state": "NJ",
    "county": "Atlantic",
    "phone": "(609) 965-1800",
    "latitude": 39.5187,
    "longitude": -74.6987,
    "tier": "Mid-Tier",
    "primary_focus": "Championship Golf",
    "atmosphere": "Casual / Come as you are",
    "notes": "Atlantic County. Pine Barrens setting."
  },
  {
    "name": "Laurel Creek Country Club",
    "city": "Mount Laurel",
    "state": "NJ",
    "county": "Burlington",
    "phone": "(856) 234-4200",
    "latitude": 39.9187,
    "longitude": -74.9087,
    "tier": "Mid-Tier",
    "primary_focus": "Championship Golf",
    "atmosphere": "Polished but relaxed",
    "notes": "Burlington County. Active golf program."
  },
  {
    "name": "Ramblewood Country Club",
    "city": "Mount Laurel",
    "state": "NJ",
    "county": "Burlington",
    "phone": "(856) 235-7600",
    "latitude": 39.9287,
    "longitude": -74.9187,
    "tier": "Mid-Tier",
    "primary_focus": "Championship Golf",
    "atmosphere": "Polished but relaxed",
    "notes": "Burlington County. Red and White courses."
  },
  {
    "name": "Woodcrest Country Club",
    "city": "Cherry Hill",
    "state": "NJ",
    "county": "Camden",
    "phone": "(856) 428-8440",
    "latitude": 39.8987,
    "longitude": -74.9787,
    "tier": "Premium",
    "primary_focus": "Championship Golf",
    "atmosphere": "Traditional / Formal",
    "notes": "South Jersey premier club. Strong golf tradition."
  },
  {
    "name": "Burlington Country Club",
    "city": "Westampton",
    "state": "NJ",
    "county": "Burlington",
    "phone": "(609) 267-1818",
    "latitude": 40.0387,
    "longitude": -74.8087,
    "tier": "Mid-Tier",
    "primary_focus": "Family & Social",
    "atmosphere": "Polished but relaxed",
    "notes": "Burlington County. Family amenities."
  },
  {
    "name": "Riverton Country Club",
    "city": "Riverton",
    "state": "NJ",
    "county": "Burlington",
    "phone": "(856) 829-2220",
    "latitude": 40.0087,
    "longitude": -75.0087,
    "tier": "Mid-Tier",
    "primary_focus": "Family & Social",
    "atmosphere": "Polished but relaxed",
    "notes": "Burlington County. Historic club. River views."
  },
  {
    "name": "Moorestown Field Club",
    "city": "Moorestown",
    "state": "NJ",
    "county": "Burlington",
    "phone": "(856) 235-0504",
    "latitude": 39.9687,
    "longitude": -74.9487,
    "tier": "Premium",
    "primary_focus": "Family & Social",
    "atmosphere": "Polished but relaxed",
    "notes": "Burlington County. Family club. Pool, tennis, golf."
  },
  {
    "name": "Pennsylvania Golf Club",
    "city": "Medford",
    "state": "NJ",
    "county": "Burlington",
    "latitude": 39.8687,
    "longitude": -74.8187,
    "tier": "Accessible",
    "primary_focus": "Championship Golf",
    "atmosphere": "Casual / Come as you are",
    "notes": "Burlington County. Public course."
  },
  {
    "name": "Medford Lakes Country Club",
    "city": "Medford",
    "state": "NJ",
    "county": "Burlington",
    "latitude": 39.8587,
    "longitude": -74.8087,
    "tier": "Accessible",
    "primary_focus": "Family & Social",
    "atmosphere": "Casual / Come as you are",
    "notes": "Community club. Family-oriented."
  },
  {
    "name": "Medford Village Country Club",
    "city": "Medford",
    "state": "NJ",
    "county": "Burlington",
    "latitude": 39.8487,
    "longitude": -74.7987,
    "tier": "Accessible",
    "primary_focus": "Championship Golf",
    "atmosphere": "Casual / Come as you are",
    "notes": "Burlington County. Nine holes."
  },
  {
    "name": "Rancocas Golf Club",
    "city": "Willingboro",
    "state": "NJ",
    "county": "Burlington",
    "phone": "(609) 877-5344",
    "latitude": 40.0187,
    "longitude": -74.8687,
    "tier": "Mid-Tier",
    "primary_focus": "Championship Golf",
    "atmosphere": "Polished but relaxed",
    "notes": "Burlington County. Classic parkland."
  },
  {
    "name": "Deerwood Country Club",
    "city": "Westampton",
    "state": "NJ",
    "county": "Burlington",
    "latitude": 40.0487,
    "longitude": -74.8187,
    "tier": "Accessible",
    "primary_focus": "Family & Social",
    "atmosphere": "Casual / Come as you are",
    "notes": "Burlington County. Small club."
  },
  {
    "name": "Battleground Country Club",
    "city": "Manalapan",
    "state": "NJ",
    "county": "Monmouth",
    "phone": "(732) 446-3800",
    "latitude": 40.2787,
    "longitude": -74.3387,
    "tier": "Mid-Tier",
    "primary_focus": "Championship Golf",
    "atmosphere": "Polished but relaxed",
    "notes": "Monmouth County. Modern design."
  },
  {
    "name": "Bamm Hollow Country Club",
    "city": "Lincroft",
    "state": "NJ",
    "county": "Monmouth",
    "phone": "(732) 741-3636",
    "latitude": 40.3287,
    "longitude": -74.1187,
    "tier": "Premium",
    "primary_focus": "Championship Golf",
    "atmosphere": "Polished but relaxed",
    "notes": "Robert Trent Jones design. Monmouth County."
  },
  {
    "name": "Hominy Hill Golf Course",
    "city": "Colts Neck",
    "state": "NJ",
    "county": "Monmouth",
    "phone": "(732) 462-9222",
    "latitude": 40.3087,
    "longitude": -74.1587,
    "tier": "Accessible",
    "primary_focus": "Championship Golf",
    "atmosphere": "Casual / Come as you are",
    "notes": "Robert Trent Jones. County course."
  },
  {
    "name": "Charleston Springs Golf Course",
    "city": "Millstone",
    "state": "NJ",
    "county": "Monmouth",
    "latitude": 40.1987,
    "longitude": -74.4087,
    "tier": "Accessible",
    "primary_focus": "Championship Golf",
    "atmosphere": "Casual / Come as you are",
    "notes": "Monmouth County. Public course."
  },
  {
    "name": "Eagle Ridge Golf Club",
    "city": "Lakewood",
    "state": "NJ",
    "county": "Ocean",
    "phone": "(732) 901-4900",
    "latitude": 40.0587,
    "longitude": -74.2387,
    "tier": "Mid-Tier",
    "primary_focus": "Championship Golf",
    "atmosphere": "Casual / Come as you are",
    "notes": "Ocean County. Modern design."
  },
  {
    "name": "Architects Golf Club",
    "city": "Lopatcong",
    "state": "NJ",
    "county": "Warren",
    "phone": "(908) 213-3080",
    "latitude": 40.7187,
    "longitude": -75.1187,
    "tier": "Premium",
    "primary_focus": "Championship Golf",
    "atmosphere": "Polished but relaxed",
    "notes": "Stephen Kay design. Warren County."
  },
  {
    "name": "Skyview Golf Club",
    "city": "Sparta",
    "state": "NJ",
    "county": "Sussex",
    "phone": "(973) 729-7444",
    "latitude": 41.0387,
    "longitude": -74.5187,
    "tier": "Mid-Tier",
    "primary_focus": "Championship Golf",
    "atmosphere": "Casual / Come as you are",
    "notes": "Sussex County. Mountain views."
  },
  {
    "name": "Crystal Springs Golf Club",
    "city": "Hamburg",
    "state": "NJ",
    "county": "Sussex",
    "phone": "(973) 827-5996",
    "latitude": 41.1387,
    "longitude": -74.5787,
    "tier": "Premium",
    "primary_focus": "Championship Golf",
    "atmosphere": "Polished but relaxed",
    "notes": "Part of Crystal Springs Resort. Robert von Hagge design."
  },
  {
    "name": "Ballyowen Golf Club",
    "city": "Hamburg",
    "state": "NJ",
    "county": "Sussex",
    "phone": "(973) 827-5996",
    "latitude": 41.1287,
    "longitude": -74.5687,
    "tier": "Premium",
    "primary_focus": "Championship Golf",
    "atmosphere": "Casual / Come as you are",
    "notes": "Roger Rulewich design. Crystal Springs Resort."
  },
  {
    "name": "Wild Turkey Golf Club",
    "city": "Hamburg",
    "state": "NJ",
    "county": "Sussex",
    "latitude": 41.1187,
    "longitude": -74.5587,
    "tier": "Mid-Tier",
    "primary_focus": "Championship Golf",
    "atmosphere": "Casual / Come as you are",
    "notes": "Crystal Springs Resort. Roger Rulewich."
  },
  {
    "name": "Black Bear Golf Club",
    "city": "Franklin",
    "state": "NJ",
    "county": "Sussex",
    "phone": "(973) 209-2226",
    "latitude": 41.1087,
    "longitude": -74.5987,
    "tier": "Mid-Tier",
    "primary_focus": "Championship Golf",
    "atmosphere": "Casual / Come as you are",
    "notes": "Jack Nicklaus design. Crystal Springs."
  },
  {
    "name": "Minerals Golf Club",
    "city": "Hamburg",
    "state": "NJ",
    "county": "Sussex",
    "latitude": 41.1487,
    "longitude": -74.5487,
    "tier": "Premium",
    "primary_focus": "Championship Golf",
    "atmosphere": "Polished but relaxed",
    "notes": "Crystal Springs. Mountain course."
  },
  {
    "name": "Cascades Golf Club",
    "city": "Hamburg",
    "state": "NJ",
    "county": "Sussex",
    "latitude": 41.1587,
    "longitude": -74.5387,
    "tier": "Mid-Tier",
    "primary_focus": "Championship Golf",
    "atmosphere": "Casual / Come as you are",
    "notes": "Crystal Springs. Tom Fazio design."
  },
  {
    "name": "Sussex County",
    "city": "Westchester County",
    "state": "NY",
    "notes": "NEW YORK CLUBS BEGIN HERE"
  },
  {
    "name": "Winged Foot Golf Club",
    "city": "Mamaroneck",
    "state": "NY",
    "county": "Westchester",
    "zip_code": "10543",
    "phone": "(914) 698-8400",
    "website": "https://www.wfgc.org",
    "latitude": 40.9487,
    "longitude": -73.7287,
    "course_architect": "A.W. Tillinghast",
    "tier": "Elite",
    "primary_focus": "Championship Golf",
    "atmosphere": "Traditional / Formal",
    "notes": "Two Tillinghast courses (East and West). 6 U.S. Opens hosted. One of America's most prestigious clubs."
  },
  {
    "name": "Quaker Ridge Golf Club",
    "city": "Scarsdale",
    "state": "NY",
    "county": "Westchester",
    "zip_code": "10583",
    "phone": "(914) 725-2000",
    "latitude": 40.9887,
    "longitude": -73.7987,
    "course_architect": "A.W. Tillinghast",
    "tier": "Elite",
    "primary_focus": "Championship Golf",
    "atmosphere": "Traditional / Formal",
    "notes": "Tillinghast masterpiece. Top 100 course. Walking only. Hosted Walker Cup."
  },
  {
    "name": "Sleepy Hollow Country Club",
    "city": "Scarborough",
    "state": "NY",
    "county": "Westchester",
    "zip_code": "10510",
    "phone": "(914) 923-8650",
    "website": "https://www.sleepyhollowcc.org",
    "latitude": 41.0687,
    "longitude": -73.8487,
    "course_architect": "C.B. Macdonald",
    "tier": "Elite",
    "primary_focus": "Championship Golf",
    "atmosphere": "Traditional / Formal",
    "notes": "C.B. Macdonald design. Hudson River views. Top 100 course. Hosted Walker Cup."
  },
  {
    "name": "Westchester Country Club",
    "city": "Rye",
    "state": "NY",
    "county": "Westchester",
    "zip_code": "10580",
    "phone": "(914) 967-6000",
    "latitude": 40.9787,
    "longitude": -73.6887,
    "course_architect": "Walter Travis",
    "tier": "Elite",
    "primary_focus": "Championship Golf",
    "atmosphere": "Traditional / Formal",
    "notes": "Hosts PGA Tour Northern Trust. West Course. Renovated by Pete Dye."
  },
  {
    "name": "Wykagyl Country Club",
    "city": "New Rochelle",
    "state": "NY",
    "county": "Westchester",
    "zip_code": "10804",
    "phone": "(914) 576-3800",
    "latitude": 40.9287,
    "longitude": -73.7687,
    "course_architect": "Lawrence Van Etten",
    "tier": "Premium",
    "primary_focus": "Championship Golf",
    "atmosphere": "Traditional / Formal",
    "notes": "Historic Westchester club. Strong golf pedigree."
  },
  {
    "name": "Century Country Club",
    "city": "Purchase",
    "state": "NY",
    "county": "Westchester",
    "zip_code": "10577",
    "phone": "(914) 251-3100",
    "latitude": 41.0387,
    "longitude": -73.7187,
    "tier": "Premium",
    "primary_focus": "Championship Golf",
    "atmosphere": "Traditional / Formal",
    "notes": "Robert Trent Jones design. Westchester location."
  },
  {
    "name": "Fenway Golf Club",
    "city": "Scarsdale",
    "state": "NY",
    "county": "Westchester",
    "zip_code": "10583",
    "phone": "(914) 723-2500",
    "latitude": 40.9787,
    "longitude": -73.8087,
    "tier": "Premium",
    "primary_focus": "Championship Golf",
    "atmosphere": "Traditional / Formal",
    "notes": "A.W. Tillinghast design. Walking only."
  },
  {
    "name": "Apawamis Club",
    "city": "Rye",
    "state": "NY",
    "county": "Westchester",
    "zip_code": "10580",
    "phone": "(914) 967-2100",
    "latitude": 40.9887,
    "longitude": -73.6787,
    "course_architect": "Willie Park Jr.",
    "tier": "Elite",
    "primary_focus": "Championship Golf",
    "atmosphere": "Traditional / Formal",
    "notes": "Historic club. Strong amateur golf tradition."
  },
  {
    "name": "Siwanoy Country Club",
    "city": "Bronxville",
    "state": "NY",
    "county": "Westchester",
    "zip_code": "10708",
    "phone": "(914) 337-2700",
    "latitude": 40.9487,
    "longitude": -73.8287,
    "course_architect": "A.W. Tillinghast",
    "tier": "Premium",
    "primary_focus": "Championship Golf",
    "atmosphere": "Traditional / Formal",
    "notes": "Tillinghast design. Hosted 1916 PGA Championship."
  },
  {
    "name": "Bonnie Briar Country Club",
    "city": "Larchmont",
    "state": "NY",
    "county": "Westchester",
    "zip_code": "10538",
    "phone": "(914) 834-4611",
    "latitude": 40.9187,
    "longitude": -73.7587,
    "tier": "Premium",
    "primary_focus": "Family & Social",
    "atmosphere": "Polished but relaxed",
    "notes": "Westchester family club. Pool, tennis, golf."
  },
  {
    "name": "Scarsdale Golf Club",
    "city": "Hartsdale",
    "state": "NY",
    "county": "Westchester",
    "zip_code": "10530",
    "phone": "(914) 472-9800",
    "latitude": 41.0087,
    "longitude": -73.8187,
    "tier": "Premium",
    "primary_focus": "Championship Golf",
    "atmosphere": "Polished but relaxed",
    "notes": "A.W. Tillinghast design. Westchester."
  },
  {
    "name": "Ardsley Country Club",
    "city": "Ardsley-on-Hudson",
    "state": "NY",
    "county": "Westchester",
    "zip_code": "10503",
    "phone": "(914) 693-2230",
    "latitude": 41.0387,
    "longitude": -73.8687,
    "tier": "Premium",
    "primary_focus": "Championship Golf",
    "atmosphere": "Traditional / Formal",
    "notes": "Historic Westchester club. Hudson River views."
  },
  {
    "name": "Blind Brook Club",
    "city": "Purchase",
    "state": "NY",
    "county": "Westchester",
    "zip_code": "10577",
    "phone": "(914) 967-9600",
    "latitude": 41.0187,
    "longitude": -73.7087,
    "course_architect": "A.W. Tillinghast",
    "tier": "Premium",
    "primary_focus": "Championship Golf",
    "atmosphere": "Traditional / Formal",
    "notes": "Tillinghast design. Top Westchester club."
  },
  {
    "name": "Pelham Country Club",
    "city": "Pelham Manor",
    "state": "NY",
    "county": "Westchester",
    "zip_code": "10803",
    "phone": "(914) 738-2000",
    "latitude": 40.8987,
    "longitude": -73.8087,
    "tier": "Premium",
    "primary_focus": "Championship Golf",
    "atmosphere": "Traditional / Formal",
    "notes": "Devereux Emmet design. Westchester."
  },
  {
    "name": "Sunningdale Country Club",
    "city": "Scarsdale",
    "state": "NY",
    "county": "Westchester",
    "zip_code": "10583",
    "phone": "(914) 725-2000",
    "latitude": 40.9987,
    "longitude": -73.7887,
    "tier": "Premium",
    "primary_focus": "Family & Social",
    "atmosphere": "Polished but relaxed",
    "notes": "Westchester family club. Pool and tennis."
  },
  {
    "name": "Hampshire Country Club",
    "city": "Mamaroneck",
    "state": "NY",
    "county": "Westchester",
    "zip_code": "10543",
    "phone": "(914) 698-3003",
    "latitude": 40.9387,
    "longitude": -73.7387,
    "tier": "Premium",
    "primary_focus": "Championship Golf",
    "atmosphere": "Polished but relaxed",
    "notes": "Robert Trent Jones design. Westchester."
  },
  {
    "name": "Whippoorwill Club",
    "city": "Armonk",
    "state": "NY",
    "county": "Westchester",
    "zip_code": "10504",
    "phone": "(914) 273-9300",
    "latitude": 41.1187,
    "longitude": -73.7187,
    "tier": "Premium",
    "primary_focus": "Championship Golf",
    "atmosphere": "Traditional / Formal",
    "notes": "Hosted 1997 PGA Championship (nearby)."
  },
  {
    "name": "Rye Golf Club",
    "city": "Rye",
    "state": "NY",
    "county": "Westchester",
    "zip_code": "10580",
    "phone": "(914) 967-3540",
    "latitude": 40.9687,
    "longitude": -73.6987,
    "tier": "Mid-Tier",
    "primary_focus": "Championship Golf",
    "atmosphere": "Polished but relaxed",
    "notes": "Municipal course. Strong play."
  },
  {
    "name": "Briar Hall Country Club",
    "city": "Briarcliff Manor",
    "state": "NY",
    "county": "Westchester",
    "zip_code": "10510",
    "phone": "(914) 941-5000",
    "latitude": 41.1387,
    "longitude": -73.8387,
    "tier": "Mid-Tier",
    "primary_focus": "Family & Social",
    "atmosphere": "Polished but relaxed",
    "notes": "Westchester family club."
  },
  {
    "name": "Knollwood Country Club",
    "city": "Elmsford",
    "state": "NY",
    "county": "Westchester",
    "zip_code": "10523",
    "phone": "(914) 592-3838",
    "latitude": 41.0587,
    "longitude": -73.8187,
    "tier": "Premium",
    "primary_focus": "Family & Social",
    "atmosphere": "Polished but relaxed",
    "notes": "Westchester. Pool, tennis, golf."
  },
  {
    "name": "Mount Kisco Country Club",
    "city": "Mount Kisco",
    "state": "NY",
    "county": "Westchester",
    "zip_code": "10549",
    "phone": "(914) 666-8566",
    "latitude": 41.1887,
    "longitude": -73.7287,
    "tier": "Mid-Tier",
    "primary_focus": "Family & Social",
    "atmosphere": "Polished but relaxed",
    "notes": "Northern Westchester. Family club."
  },
  {
    "name": "Bedford Golf & Tennis Club",
    "city": "Bedford",
    "state": "NY",
    "county": "Westchester",
    "zip_code": "10506",
    "phone": "(914) 234-9653",
    "latitude": 41.2087,
    "longitude": -73.6487,
    "tier": "Premium",
    "primary_focus": "Championship Golf",
    "atmosphere": "Polished but relaxed",
    "notes": "A.W. Tillinghast design. Northern Westchester."
  },
  {
    "name": "Salem Golf Club",
    "city": "North Salem",
    "state": "NY",
    "county": "Westchester",
    "zip_code": "10560",
    "phone": "(914) 669-5164",
    "latitude": 41.3187,
    "longitude": -73.5887,
    "tier": "Mid-Tier",
    "primary_focus": "Championship Golf",
    "atmosphere": "Casual / Come as you are",
    "notes": "Northern Westchester. Golf-focused."
  },
  {
    "name": "Pound Ridge Golf Club",
    "city": "Pound Ridge",
    "state": "NY",
    "county": "Westchester",
    "zip_code": "10576",
    "phone": "(914) 764-5771",
    "latitude": 41.2187,
    "longitude": -73.5787,
    "tier": "Premium",
    "primary_focus": "Championship Golf",
    "atmosphere": "Casual / Come as you are",
    "notes": "Pete Dye design. Public access."
  },
  {
    "name": "Trump National Golf Club Westchester",
    "city": "Briarcliff Manor",
    "state": "NY",
    "county": "Westchester",
    "zip_code": "10510",
    "phone": "(914) 944-0900",
    "latitude": 41.1487,
    "longitude": -73.8487,
    "tier": "Elite",
    "primary_focus": "Championship Golf",
    "atmosphere": "Traditional / Formal",
    "notes": "Jim Fazio design. Premium facilities."
  },
  {
    "name": "Metropolis Country Club",
    "city": "White Plains",
    "state": "NY",
    "county": "Westchester",
    "zip_code": "10607",
    "phone": "(914) 946-1144",
    "latitude": 41.0287,
    "longitude": -73.7887,
    "tier": "Mid-Tier",
    "primary_focus": "Family & Social",
    "atmosphere": "Polished but relaxed",
    "notes": "Westchester. Family amenities."
  },
  {
    "name": "Brae Burn Country Club",
    "city": "Purchase",
    "state": "NY",
    "county": "Westchester",
    "zip_code": "10577",
    "phone": "(914) 251-3200",
    "latitude": 41.0487,
    "longitude": -73.7287,
    "tier": "Premium",
    "primary_focus": "Family & Social",
    "atmosphere": "Polished but relaxed",
    "notes": "Westchester. Pool, tennis, golf."
  },
  {
    "name": "Waccabuc Country Club",
    "city": "Waccabuc",
    "state": "NY",
    "county": "Westchester",
    "zip_code": "10597",
    "phone": "(914) 763-5200",
    "latitude": 41.2887,
    "longitude": -73.5987,
    "tier": "Premium",
    "primary_focus": "Family & Social",
    "atmosphere": "Polished but relaxed",
    "notes": "Northern Westchester. Family club. Lake views."
  },
  {
    "name": "Hudson National Golf Club",
    "city": "Croton-on-Hudson",
    "state": "NY",
    "county": "Westchester",
    "zip_code": "10520",
    "phone": "(914) 862-2990",
    "latitude": 41.1987,
    "longitude": -73.8787,
    "tier": "Premium",
    "primary_focus": "Championship Golf",
    "atmosphere": "Polished but relaxed",
    "notes": "Tom Fazio design. Hudson River views."
  },
  {
    "name": "Rockland County Notes",
    "city": "Rockland County",
    "state": "NY",
    "notes": "ROCKLAND COUNTY CLUBS"
  },
  {
    "name": "Deepdale Golf Club",
    "city": "Manhasset",
    "state": "NY",
    "county": "Nassau",
    "tier": "Elite",
    "notes": "Actually Nassau - not in our region"
  },
  {
    "name": "Old Oaks Country Club",
    "city": "Purchase",
    "state": "NY",
    "county": "Westchester",
    "zip_code": "10577",
    "phone": "(914) 946-3300",
    "latitude": 41.0287,
    "longitude": -73.7387,
    "tier": "Premium",
    "primary_focus": "Family & Social",
    "atmosphere": "Polished but relaxed",
    "notes": "Westchester. Family amenities."
  },
  {
    "name": "Wykagyl Country Club - South",
    "city": "New Rochelle",
    "state": "NY",
    "county": "Westchester",
    "tier": "Premium",
    "notes": "Same as main Wykagyl listing"
  },
  {
    "name": "Pelham Country Club - Split Rock",
    "city": "Bronx",
    "state": "NY",
    "county": "Bronx",
    "tier": "Mid-Tier",
    "notes": "Public course - not private"
  },
  {
    "name": "Rockland Lake State Park Golf",
    "city": "Congers",
    "state": "NY",
    "county": "Rockland",
    "tier": "Accessible",
    "notes": "Public course - not private"
  },
  {
    "name": "Spook Rock Golf Course",
    "city": "Suffern",
    "state": "NY",
    "county": "Rockland",
    "tier": "Accessible",
    "notes": "Public course - not private"
  },
  {
    "name": "Blue Hill Golf Course",
    "city": "Pearl River",
    "state": "NY",
    "county": "Rockland",
    "tier": "Accessible",
    "notes": "Public course - not private"
  },
  {
    "name": "Phillip J. Rotella Memorial Golf Course",
    "city": "Thiells",
    "state": "NY",
    "county": "Rockland",
    "tier": "Accessible",
    "notes": "Public course - not private"
  },
  {
    "name": "Mansion Ridge Golf Club",
    "city": "Monroe",
    "state": "NY",
    "county": "Orange",
    "phone": "(845) 782-7888",
    "latitude": 41.3287,
    "longitude": -74.1887,
    "tier": "Mid-Tier",
    "primary_focus": "Championship Golf",
    "atmosphere": "Casual / Come as you are",
    "notes": "Jack Nicklaus design. Orange County."
  },
  {
    "name": "The Powelton Club",
    "city": "Newburgh",
    "state": "NY",
    "county": "Orange",
    "phone": "(845) 561-3100",
    "latitude": 41.5287,
    "longitude": -74.0487,
    "tier": "Premium",
    "primary_focus": "Championship Golf",
    "atmosphere": "Traditional / Formal",
    "notes": "Historic Orange County club. Donald Ross design."
  },
  {
    "name": "West Point Golf Course",
    "city": "West Point",
    "state": "NY",
    "county": "Orange",
    "latitude": 41.3887,
    "longitude": -73.9687,
    "tier": "Mid-Tier",
    "notes": "Military course - not traditional private"
  },
  {
    "name": "Osiris Country Club",
    "city": "Yorktown Heights",
    "state": "NY",
    "county": "Westchester",
    "latitude": 41.2687,
    "longitude": -73.7887,
    "tier": "Mid-Tier",
    "primary_focus": "Family & Social",
    "atmosphere": "Casual / Come as you are",
    "notes": "Northern Westchester. Family club."
  },
  {
    "name": "Lakeland Golf & Country Club",
    "city": "Shrub Oak",
    "state": "NY",
    "county": "Westchester",
    "latitude": 41.3287,
    "longitude": -73.8187,
    "tier": "Accessible",
    "primary_focus": "Family & Social",
    "atmosphere": "Casual / Come as you are",
    "notes": "Northern Westchester. Small club."
  },
  {
    "name": "Heritage Hills Golf Club",
    "city": "Somers",
    "state": "NY",
    "county": "Westchester",
    "latitude": 41.3087,
    "longitude": -73.6987,
    "tier": "Accessible",
    "primary_focus": "Championship Golf",
    "atmosphere": "Casual / Come as you are",
    "notes": "Adult community. Semi-private."
  },
  {
    "name": "PENNSYLVANIA CLUBS",
    "state": "PA",
    "notes": "PENNSYLVANIA CLUBS BEGIN"
  },
  {
    "name": "Merion Golf Club",
    "city": "Ardmore",
    "state": "PA",
    "county": "Delaware",
    "zip_code": "19003",
    "phone": "(610) 642-5600",
    "website": "https://www.meriongolfclub.com",
    "latitude": 40.0087,
    "longitude": -75.2887,
    "course_architect": "Hugh Wilson",
    "tier": "Elite",
    "primary_focus": "Championship Golf",
    "atmosphere": "Traditional / Formal",
    "notes": "East Course is Top 5 in America. 5 U.S. Opens. Wicker baskets. Walking only."
  },
  {
    "name": "Philadelphia Cricket Club",
    "city": "Flourtown",
    "state": "PA",
    "county": "Montgomery",
    "zip_code": "19031",
    "phone": "(215) 836-9900",
    "latitude": 40.1087,
    "longitude": -75.2087,
    "course_architect": "A.W. Tillinghast",
    "tier": "Elite",
    "primary_focus": "Championship Golf",
    "atmosphere": "Traditional / Formal",
    "notes": "Tillinghast Wissahickon Course. Hosted 2013 U.S. Women's Open."
  },
  {
    "name": "Aronimink Golf Club",
    "city": "Newtown Square",
    "state": "PA",
    "county": "Delaware",
    "zip_code": "19073",
    "phone": "(610) 356-4230",
    "website": "https://www.aronimink.org",
    "latitude": 39.9887,
    "longitude": -75.4087,
    "course_architect": "Donald Ross",
    "tier": "Elite",
    "primary_focus": "Championship Golf",
    "atmosphere": "Traditional / Formal",
    "notes": "Donald Ross design. Hosted 2018 BMW Championship. Top 100 course."
  },
  {
    "name": "Huntingdon Valley Country Club",
    "city": "Huntingdon Valley",
    "state": "PA",
    "county": "Montgomery",
    "zip_code": "19006",
    "phone": "(215) 947-8200",
    "latitude": 40.1287,
    "longitude": -75.0487,
    "course_architect": "William Flynn",
    "tier": "Premium",
    "primary_focus": "Championship Golf",
    "atmosphere": "Traditional / Formal",
    "notes": "William Flynn design. Strong Philadelphia area club."
  },
  {
    "name": "Philadelphia Country Club",
    "city": "Gladwyne",
    "state": "PA",
    "county": "Montgomery",
    "zip_code": "19035",
    "phone": "(610) 649-5000",
    "latitude": 40.0387,
    "longitude": -75.2887,
    "course_architect": "William Flynn",
    "tier": "Elite",
    "primary_focus": "Championship Golf",
    "atmosphere": "Traditional / Formal",
    "notes": "Spring Mill Course by Flynn. Premium Philadelphia club."
  },
  {
    "name": "Gulph Mills Golf Club",
    "city": "King of Prussia",
    "state": "PA",
    "county": "Montgomery",
    "zip_code": "19406",
    "phone": "(610) 337-1200",
    "latitude": 40.0687,
    "longitude": -75.3687,
    "course_architect": "Donald Ross",
    "tier": "Premium",
    "primary_focus": "Championship Golf",
    "atmosphere": "Traditional / Formal",
    "notes": "Donald Ross design. Montgomery County."
  },
  {
    "name": "Whitemarsh Valley Country Club",
    "city": "Lafayette Hill",
    "state": "PA",
    "county": "Montgomery",
    "zip_code": "19444",
    "phone": "(610) 828-4600",
    "latitude": 40.0987,
    "longitude": -75.2487,
    "tier": "Premium",
    "primary_focus": "Championship Golf",
    "atmosphere": "Traditional / Formal",
    "notes": "William Flynn design. Montgomery County."
  },
  {
    "name": "Saucon Valley Country Club",
    "city": "Bethlehem",
    "state": "PA",
    "county": "Lehigh",
    "zip_code": "18015",
    "phone": "(610) 691-4000",
    "website": "https://sauconvalleycc.org",
    "latitude": 40.5687,
    "longitude": -75.3887,
    "course_architect": "William Flynn",
    "tier": "Elite",
    "primary_focus": "Championship Golf",
    "atmosphere": "Traditional / Formal",
    "notes": "Three William Flynn courses (Old, Grace, Weyhill). Hosted 5 U.S. Senior Opens."
  },
  {
    "name": "Lehigh Country Club",
    "city": "Allentown",
    "state": "PA",
    "county": "Lehigh",
    "zip_code": "18104",
    "phone": "(610) 395-4653",
    "latitude": 40.6287,
    "longitude": -75.4687,
    "course_architect": "A.W. Tillinghast",
    "tier": "Premium",
    "primary_focus": "Championship Golf",
    "atmosphere": "Traditional / Formal",
    "notes": "Tillinghast design. Lehigh Valley premier club."
  },
  {
    "name": "Rolling Green Golf Club",
    "city": "Springfield",
    "state": "PA",
    "county": "Delaware",
    "zip_code": "19064",
    "phone": "(610) 328-1200",
    "latitude": 39.9287,
    "longitude": -75.3487,
    "course_architect": "William Flynn",
    "tier": "Premium",
    "primary_focus": "Championship Golf",
    "atmosphere": "Traditional / Formal",
    "notes": "William Flynn design. Strong tournament history."
  },
  {
    "name": "Manufacturers' Golf & Country Club",
    "city": "Fort Washington",
    "state": "PA",
    "county": "Montgomery",
    "zip_code": "19034",
    "phone": "(215) 646-8900",
    "latitude": 40.1387,
    "longitude": -75.1887,
    "course_architect": "Donald Ross",
    "tier": "Premium",
    "primary_focus": "Championship Golf",
    "atmosphere": "Traditional / Formal",
    "notes": "Donald Ross design. Montgomery County."
  },
  {
    "name": "St. Davids Golf Club",
    "city": "Wayne",
    "state": "PA",
    "county": "Delaware",
    "zip_code": "19087",
    "phone": "(610) 688-5030",
    "latitude": 40.0487,
    "longitude": -75.3887,
    "course_architect": "William Flynn",
    "tier": "Premium",
    "primary_focus": "Championship Golf",
    "atmosphere": "Traditional / Formal",
    "notes": "William Flynn design. Main Line location."
  },
  {
    "name": "Sunnybrook Golf Club",
    "city": "Plymouth Meeting",
    "state": "PA",
    "county": "Montgomery",
    "zip_code": "19462",
    "phone": "(610) 828-2900",
    "latitude": 40.1187,
    "longitude": -75.2787,
    "tier": "Premium",
    "primary_focus": "Family & Social",
    "atmosphere": "Polished but relaxed",
    "notes": "Montgomery County. Family amenities."
  },
  {
    "name": "Bucks County Note",
    "county": "Bucks",
    "state": "PA",
    "notes": "BUCKS COUNTY CLUBS"
  },
  {
    "name": "Makefield Highlands Golf Club",
    "city": "Yardley",
    "state": "PA",
    "county": "Bucks",
    "zip_code": "19067",
    "phone": "(215) 321-8899",
    "latitude": 40.2387,
    "longitude": -74.8487,
    "tier": "Premium",
    "primary_focus": "Championship Golf",
    "atmosphere": "Polished but relaxed",
    "notes": "Rees Jones design. Bucks County."
  },
  {
    "name": "Makefield Highlands - duplicate check",
    "state": "PA",
    "notes": "Already listed"
  }
]
